[{"name":"Carnegie Mellon West at NASA Ames Research Park","location":{"type":"Point","coordinates":[-122.059736344,37.4104611377]},"venue":"school","latitud":37.4104611377,"longitud":-122.059736344},{"name":"Kumon Math and Reading Center of Sunnyvale - Lowlanders","location":{"type":"Point","coordinates":[-122.0422252314,37.3902027811]},"venue":"school","latitud":37.3902027811,"longitud":-122.0422252314},{"name":"Small World Academy","location":{"type":"Point","coordinates":[-121.998743,37.392595]},"venue":"school","latitud":37.392595,"longitud":-121.998743},{"name":"California Young World","location":{"type":"Point","coordinates":[-121.9909973145,37.3966751099]},"venue":"school","latitud":37.3966751099,"longitud":-121.9909973145},{"name":"Yew Chung International School","location":{"type":"Point","coordinates":[-122.062134,37.397087]},"venue":"school","latitud":37.397087,"longitud":-122.062134},{"name":"Heads Up Tutoring","location":{"type":"Point","coordinates":[-122.0077590942,37.3833580017]},"venue":"school","latitud":37.3833580017,"longitud":-122.0077590942},{"name":"Yew Chung International School of Silicon Valley","location":{"type":"Point","coordinates":[-122.06765,37.399916]},"venue":"school","latitud":37.399916,"longitud":-122.06765},{"name":"Zenith Tutoring","location":{"type":"Point","coordinates":[-122.0787124634,37.4173126221]},"venue":"school","latitud":37.4173126221,"longitud":-122.0787124634},{"name":"Trio, School of Music, Dance and Languages","location":{"type":"Point","coordinates":[-122.0306181908,37.3761937295]},"venue":"school","latitud":37.3761937295,"longitud":-122.0306181908},{"name":"St. Cyprian Catholic School","location":{"type":"Point","coordinates":[-122.0504818204,37.3806972901]},"venue":"school","latitud":37.3806972901,"longitud":-122.0504818204},{"name":"Catholic Academy of Sunnyvale","location":{"type":"Point","coordinates":[-122.0505142212,37.3805809021]},"venue":"school","latitud":37.3805809021,"longitud":-122.0505142212},{"name":"Suomikoulu","location":{"type":"Point","coordinates":[-122.0339126587,37.3762054443]},"venue":"school","latitud":37.3762054443,"longitud":-122.0339126587},{"name":"Western Montessori","location":{"type":"Point","coordinates":[-122.062013,37.384813]},"venue":"school","latitud":37.384813,"longitud":-122.062013},{"name":"Stratford School","location":{"type":"Point","coordinates":[-122.0401706324,37.375336252]},"venue":"school","latitud":37.375336252,"longitud":-122.0401706324},{"name":"Building Kidz","location":{"type":"Point","coordinates":[-122.0635987908,37.3853394356]},"venue":"school","latitud":37.3853394356,"longitud":-122.0635987908},{"name":"Sunnyvale Christian School","location":{"type":"Point","coordinates":[-122.0486328509,37.3741732615]},"venue":"school","latitud":37.3741732615,"longitud":-122.0486328509},{"name":"Stevenson PACT School","location":{"type":"Point","coordinates":[-122.0844518653,37.4035856888]},"venue":"school","latitud":37.4035856888,"longitud":-122.0844518653},{"name":"Best Brains - Sunnyvale","location":{"type":"Point","coordinates":[-122.033522,37.368774]},"venue":"school","latitud":37.368774,"longitud":-122.033522},{"name":"Kumon Math and Reading Center of Mountain View - Sunnyvale","location":{"type":"Point","coordinates":[-122.059031,37.374272]},"venue":"school","latitud":37.374272,"longitud":-122.059031},{"name":"Russian School of Mathematics","location":{"type":"Point","coordinates":[-122.0331726074,37.3670806885]},"venue":"school","latitud":37.3670806885,"longitud":-122.0331726074},{"name":"AcademyX","location":{"type":"Point","coordinates":[-121.9672154156,37.3871006757]},"venue":"school","latitud":37.3871006757,"longitud":-121.9672154156},{"name":"Champion Kinder International School","location":{"type":"Point","coordinates":[-122.033069,37.357924]},"venue":"school","latitud":37.357924,"longitud":-122.033069},{"name":"Tutu School","location":{"type":"Point","coordinates":[-122.097968,37.403887]},"venue":"school","latitud":37.403887,"longitud":-122.097968},{"name":"Oracle SCA 07-The Mansion","location":{"type":"Point","coordinates":[-121.955855,37.393286]},"venue":"school","latitud":37.393286,"longitud":-121.955855},{"name":"Little Prodigy Preschool & Daycare Center","location":{"type":"Point","coordinates":[-122.0625793934,37.3767291509]},"venue":"school","latitud":37.3767291509,"longitud":-122.0625793934},{"name":"Children's Learning Cottage","location":{"type":"Point","coordinates":[-122.095808,37.393468]},"venue":"school","latitud":37.393468,"longitud":-122.095808},{"name":"russian school of mathematics","location":{"type":"Point","coordinates":[-122.017954,37.357388]},"venue":"school","latitud":37.357388,"longitud":-122.017954},{"name":"Summit Denali High School","location":{"type":"Point","coordinates":[-122.015438,37.397162]},"venue":"school","latitud":37.397162,"longitud":-122.015438},{"name":"Gideon Hausner Jewish Day School","location":{"type":"Point","coordinates":[-122.1043428391,37.4127178754]},"venue":"school","latitud":37.4127178754,"longitud":-122.1043428391},{"name":"Boost Up Kids Academy","location":{"type":"Point","coordinates":[-122.015616,37.365882]},"venue":"school","latitud":37.365882,"longitud":-122.015616}]